{
    "POIList": [
        { "name":"Mairie de Villeurbanne", "altitude":100, "latitude":45.766592, "longitude":4.879600, "type":"BUILDING", "areas": ["Rhône", "France"] },
        { "name":"Tour Part Dieu", "altitude":100, "latitude":45.761063, "longitude":4.853752, "type":"BUILDING", "areas": ["Rhône", "France"] },
        { "name":"Basilique de Fourvière", "altitude":100, "latitude":45.762262, "longitude":4.822910, "type":"BUILDING", "areas": ["Rhône", "France"] },
        { "name":"Mont Blanc", "altitude":4810, "latitude":45.833679, "longitude":6.864564, "type":"SUMMIT", "areas": ["Savoie", "France"] },
        { "name":"Tour Incity", "altitude":100, "latitude":45.763360, "longitude":4.850961, "type":"BUILDING", "areas": ["Rhône", "France"] },
        { "name":"Opéra de Lyon", "altitude":100, "latitude":45.767792, "longitude":4.836611, "type":"BUILDING", "areas": ["Rhône", "France"] }
    ]
}
